,City,Country,Max Temp,Current Description,Lat,Lng,Hotel Name
2,Kimbe,PG,79.07,light rain,-5.5502,150.1429,Kimbe Bay Hotel
8,Kapaa,US,88.12,broken clouds,22.0752,-159.319,Sheraton Kauai Coconut Beach Resort
15,Umm Lajj,SA,87.64,clear sky,25.0213,37.2685,Moon light Furnished Units
19,Puerto Ayora,EC,82.36,scattered clouds,-0.7393,-90.3518,Finch Bay Galapagos Hotel
35,Norman Wells,CA,78.33,broken clouds,65.282,-126.8329,Heritage Hotel
37,Avarua,CK,78.85,light rain,-21.2078,-159.775,Paradise Inn
39,Acacoyagua,MX,81.64,overcast clouds,15.35,-92.65,Finca TAJUKO
46,Portland,US,82.45,overcast clouds,45.5234,-122.6762,Embassy Suites by Hilton Portland Downtown
52,Kochubey,RU,77.07,scattered clouds,44.3861,46.5825,Придорожный комплекс EUROPA
61,Kahului,US,82.42,scattered clouds,20.8947,-156.47,Maui Seaside Hotel
67,Piedra Gorda,PR,84.22,overcast clouds,18.4341,-66.8877,Centro comunal Piedra Gorda
69,Butaritari,KI,83.35,light rain,3.0707,172.7902,Isles Sunset Lodge
72,Bengkulu,ID,76.3,overcast clouds,-3.8004,102.2655,Grage Hotel Bengkulu
73,Kinablangan,PH,78.17,overcast clouds,7.6947,126.5503,Danny Moreno Property
78,Hithadhoo,MV,83.12,overcast clouds,-0.6,73.0833,Scoop Guest House
82,Shenjiamen,CN,75.65,light rain,29.9576,122.29799999999999,Jinjiang Inn Zhoushan Putuo Shenjiamen
84,Road Town,VG,84.29,few clouds,18.4167,-64.6167,"ZINGARA 76ft Catamaran, full crew-all included"
89,Kailua,US,87.78,scattered clouds,21.4022,-157.7394,Sheffield House Bed & Breakfast
90,Georgetown,MY,80.89,few clouds,5.4112,100.3354,Cititel Penang
96,Lorengau,PG,80.02,overcast clouds,-2.0226,147.2712,Lorengau Harbourside Hotel
97,Salalah,OM,80.49,scattered clouds,17.0151,54.0924,HAMDAN PLAZA HOTEL SALALAH
100,Port Blair,IN,82.45,overcast clouds,11.6667,92.75,"Welcomhotel By ITC Hotels, Bay Island, Port Blair"
104,Komsomolskiy,UZ,80.02,broken clouds,40.4272,71.7189,Ikathouse
106,Hambantota,LK,79.18,overcast clouds,6.1241,81.1185,Bungalow 63
114,Dingle,PH,77.85,moderate rain,10.9995,122.6711,SEGAYA PROPERTY
117,Smithers,CA,81.27,clear sky,54.7804,-127.1743,"Prestige Hudson Bay Lodge, Premier Collection"
124,Atuona,PF,78.85,clear sky,-9.8,-139.0333,Villa Enata
130,Black River,JM,87.98,scattered clouds,18.0264,-77.8487,Idlers' Rest Beach Hotel
134,Bandarbeyla,SO,78.4,broken clouds,9.4942,50.8122,JABIR HOTEL
141,Saint Anthony,US,87.15,few clouds,45.0205,-93.21799999999999,"Holiday Inn Express Roseville-St. Paul, an IHG Hotel"
144,Carutapera,BR,76.5,broken clouds,-1.195,-46.02,Lidera
154,Halifax,CA,78.69,broken clouds,44.6453,-63.5724,Hotel Halifax
155,Kavieng,PG,78.55,overcast clouds,-2.5744,150.7967,Nusa Island Retreat
157,Ixtapa,MX,83.43,broken clouds,20.7,-105.2,Hotel Plaza Providencia
163,Santa Isabel Do Rio Negro,BR,77.04,broken clouds,-0.4139,-65.0192,Hotel GSA
177,Greencastle,US,82.38,scattered clouds,39.6445,-86.8647,College Inn
184,Padang,ID,77.27,overcast clouds,-0.9492,100.3543,Mercure Padang
185,Kuah,MY,78.8,few clouds,6.3265,99.8432,Azio Hotel
195,Forestville,US,79.23,few clouds,38.8451,-76.875,Quality Inn Near Joint Base Andrews-Washington Area
201,Fairbanks,US,86.59,clear sky,64.8378,-147.7164,Westmark Fairbanks Hotel & Conference Center
203,Pokaran,IN,83.25,scattered clouds,26.9167,71.9167,Motel Pokaran - RTDC
205,Matamoros,MX,83.1,broken clouds,25.5333,-103.25,Quinta Belem
207,Alibag,IN,84.27,overcast clouds,18.6411,72.8792,"Radisson Blu Resort & Spa - Alibaug, India"
212,San Cristobal,VE,82.58,scattered clouds,7.7669,-72.225,Posada Villaven C.A.
214,Kathu,TH,85.69,broken clouds,7.9178,98.3332,Novotel Phuket Resort
216,Lac Du Bonnet,CA,87.75,clear sky,50.2536,-96.0612,Casey's Inn Motor Hotel
218,Ewo,CG,82.51,scattered clouds,-0.8725,14.8206,Residence Elonda Ewo
219,Hilo,US,80.33,overcast clouds,19.7297,-155.09,Hilo Hawaiian Hotel
221,Gigmoto,PH,80.92,overcast clouds,13.7796,124.39,Cj's Travellers Inn
226,Jalingo,NG,77.92,light rain,8.8833,11.3667,Debright Motel
229,Pochutla,MX,81.45,overcast clouds,15.7432,-96.4661,Hotel Posada San Jose
231,Victoria,HK,86.38,overcast clouds,22.2855,114.1577,Mini Hotel Central
233,Guerrero Negro,MX,76.37,few clouds,27.9769,-114.0611,"Casa Laguna, Bed & Breakfast"
239,Kitimat,CA,75.58,clear sky,54.0524,-128.6534,Kingfish Westcoast Adventures Ltd. Kitimat Estuary Lodge B&B
246,Nova Russas,BR,77.45,broken clouds,-4.7067,-40.5631,palace motel
247,Chalmette,US,88.05,scattered clouds,29.9427,-89.9634,Marina Inn & Suites Chalmette-New Orleans
251,Freeport,US,76.06,heavy intensity rain,40.6576,-73.5832,The Freeport Inn and Marina
252,Guilin,CN,78.91,moderate rain,25.2819,110.2864,Grand 0773 Hotel
253,Mogadishu,SO,77.58,broken clouds,2.0371,45.3438,Hotel Juba
256,Arari,BR,77.36,heavy intensity rain,-3.4536,-44.78,Churrascaria E Hotel Brisa Do Mearim
261,Lompoc,US,89.02,clear sky,34.6391,-120.4579,"Holiday Inn Express Lompoc, an IHG Hotel"
262,Faanui,PF,79.99,clear sky,-16.4833,-151.75,Bora-Bora Pearl Beach Resort & Spa
267,Makakilo City,US,86.32,overcast clouds,21.3469,-158.0858,Marriott's Ko Olina Beach Club
270,Dehri,IN,85.6,overcast clouds,24.8667,84.1833,Hotel Rudraksh Residency
271,Gizo,SB,81.21,light rain,-8.103,156.8419,Imagination Island
272,Eydhafushi,MV,81.9,overcast clouds,5.1033,73.0708,Soneva Fushi
273,Muroto,JP,77.04,overcast clouds,33.2833,134.15,Oota Ryokan
275,Ugoofaaru,MV,81.91,overcast clouds,5.6667,73.0,Ungoofaaru Inn
279,Hobyo,SO,77.45,broken clouds,5.3505,48.5268,Halane Hotel and Restaurent
280,Lahan,NP,77.9,overcast clouds,26.7296,86.4951,Hotel Durbar Pvt. Ltd.
283,Douglas,US,86.95,scattered clouds,41.3,-96.167,Hilton Garden Inn Omaha West
284,Shache,CN,79.03,overcast clouds,38.4167,77.2406,Delong Hotel
287,Banda Aceh,ID,79.03,heavy intensity rain,5.5577,95.3222,Sulthan Hotel International
289,Trincomalee,LK,81.55,broken clouds,8.5711,81.2335,Welcombe Hotel
293,Kumluca,TR,87.82,clear sky,36.3703,30.2869,TurkuazKöy
295,Kirakira,SB,80.89,overcast clouds,-10.4544,161.9205,SanBiz Lodge
296,Kavaratti,IN,82.63,overcast clouds,10.5669,72.642,Hotels in Lakshadweep Islands
300,Kieta,PG,80.78,overcast clouds,-6.2167,155.6333,Uruna Bay Retreat
305,Almeirim,BR,78.78,overcast clouds,-1.5233,-52.5817,Ricácio Hotel
306,Tezu,IN,75.15,overcast clouds,27.9167,96.1667,Circuit House
307,Portoferraio,IT,77.97,overcast clouds,42.8115,10.3146,Hotel Villa Ombrosa
310,Nishihara,JP,80.26,mist,26.1842,127.7558,Minshuku Agaihama
311,Anloga,GH,79.93,overcast clouds,5.7947,0.8973,Pin Drop Hotel
313,Boa Vista,BR,78.78,broken clouds,2.8197,-60.6733,Aipana Plaza Hotel
323,Glenwood Springs,US,84.4,scattered clouds,39.5505,-107.3248,Glenwood Springs Cedar Lodge
324,Meulaboh,ID,76.32,overcast clouds,4.1363,96.1285,Kost Pria
326,Touros,BR,79.7,scattered clouds,-5.1989,-35.4608,INN NEW HORIZON
331,Fortuna,US,89.19,broken clouds,40.5982,-124.1573,Super 8 by Wyndham Fortuna
334,Hantsport,CA,78.69,overcast clouds,45.0668,-64.1654,The Flying Apron Inn & Cookery
336,Nueva Loja,EC,76.48,clear sky,0.0847,-76.8828,Limoncocha Great Hotel
344,Gat,IL,81.39,clear sky,31.61,34.7642,OlusHome
345,Samarai,PG,78.67,overcast clouds,-10.6167,150.6667,Nuli Sapi
348,Kupang,ID,75.78,few clouds,-10.1667,123.5833,Hotel On The Rock by Prasanthi
349,Fort-Shevchenko,KZ,80.29,few clouds,44.5086,50.263000000000005,Oasis hotel Bautino
354,Anito,PH,78.85,overcast clouds,12.4497,125.2886,The Yellow House
362,Eyl,SO,79.75,overcast clouds,7.9803,49.8164,Amiin Hotel
364,Quang Ngai,VN,78.93,broken clouds,15.1167,108.8,Central Hotel
366,Narasannapeta,IN,83.07,moderate rain,18.4167,84.05,G.lingaraju home
370,Olinda,BR,76.73,overcast clouds,-8.0089,-34.8553,Hotel Albergue de Olinda
373,Rock Springs,US,83.23,few clouds,41.5875,-109.2029,Homewood Suites by Hilton Rock Springs
374,Tabou,CI,78.53,light rain,4.423,-7.3528,hotêl doufoulougou
379,Griffith,US,78.62,clear sky,41.5284,-87.4237,"Motel 6 Hammond, IN - Chicago Area"
381,Itarema,BR,79.65,overcast clouds,-2.9248,-39.9167,"Sea Lounge! Bar, Club & Restaurant"
382,Antigua Ocotepeque,HN,89.74,scattered clouds,14.4,-89.2,Hotel Internaciona
384,Acapulco,MX,82.22,broken clouds,16.8634,-99.8901,HS Hotsson Smart Acapulco
385,Owando,CG,76.75,few clouds,-0.4819,15.8999,Exaunel Hotel Owando
391,Kantunilkin,MX,85.95,overcast clouds,21.0917,-87.45,Posada Paraiso
392,Sillod,IN,75.0,broken clouds,20.3,75.65,पवन
396,Alofi,NU,82.29,light rain,-19.0595,-169.9187,Taloa Heights
398,Korla,CN,78.8,clear sky,41.7597,86.1469,Gulisitan Hotel
400,Darnah,LY,88.14,clear sky,32.766999999999996,22.6367,فندق الفردوس
401,Albion,US,80.31,scattered clouds,42.2431,-84.75299999999999,Days Inn by Wyndham Albion
409,Negombo,LK,79.93,overcast clouds,7.2083,79.8358,Hotel Sunset Beach
411,Seoul,KR,76.57,clear sky,37.5683,126.9778,롯데호텔 서울
413,Orsk,RU,77.9,clear sky,51.2049,58.5668,Kolizey
421,Baillif,GP,81.9,few clouds,16.0202,-61.7463,Hôtel Saint-Georges
422,San Nicolas,PH,78.71,broken clouds,18.1725,120.5953,NORTHVIEW Hotel
428,Ishigaki,JP,82.53,broken clouds,24.3448,124.1572,Hotel Peace Land Ishigakijima
437,La Gomera,GT,89.31,overcast clouds,14.0833,-91.05,Cede.E.T.V
438,Hirara,JP,82.67,broken clouds,24.8,125.2833,Hotel Atoll Emerald Miyakojima
442,Coahuayana,MX,81.88,overcast clouds,18.7333,-103.6833,El rranchito michuacan de ocampos
444,Tautira,PF,82.42,overcast clouds,-17.7333,-149.15,Pension Oaoa
445,Haines Junction,CA,79.66,clear sky,60.7522,-137.5108,Parkside Inn
450,Bubaque,GW,79.38,moderate rain,11.2833,-15.8333,"Casa Dora, Bubaque"
454,Abonnema,NG,77.29,overcast clouds,4.7084,6.7931,Corper's Lodge Obonoma
456,Naze,JP,76.12,moderate rain,28.3667,129.4833,奄美ポートタワーホテル
461,Bathsheba,BB,81.21,scattered clouds,13.2167,-59.5167,Atlantis Hotel
464,Mayo,US,78.75,clear sky,38.8876,-76.5119,Resorts Resource Group International
474,Chardara,KZ,79.05,clear sky,41.2547,67.9692,Жанаргул
479,Houma,US,89.6,broken clouds,29.5958,-90.7195,Courtyard by Marriott Houma
480,Puerto Palomas,MX,76.33,broken clouds,31.7667,-107.6167,Hotel San Carlos
481,Obidos,BR,78.21,overcast clouds,-1.9175,-55.5181,Hotel Amazônia Center
485,Epe,NG,77.32,overcast clouds,6.5841,3.9834,MAGVILLE HOTEL
486,Vodyane,UA,76.32,scattered clouds,47.4875,34.4924,Tsentralny Hotel
489,Brigantine,US,76.14,light rain,39.4101,-74.3646,Legacy Vacation Resorts Brigantine Beach
490,College,US,82.99,few clouds,64.8569,-147.8028,Pike's Waterfront Lodge
492,Harper,LR,78.78,overcast clouds,4.375,-7.7169,Screensaver
493,Hami,CN,78.71,few clouds,42.8,93.45,Laoyutang Resort
495,Termiz,UZ,77.09,clear sky,37.2242,67.2783,Hotel Sharq
499,Shingu,JP,75.9,heavy intensity rain,33.7333,135.9833,Shingu UI Hotel
500,Fukue,JP,75.24,broken clouds,32.6881,128.8419,Goto Guesthouse Utojuku & SA Car Rental
502,Samana,DO,80.82,broken clouds,19.2056,-69.3369,The Bannister - Hotel & Yacht Club
505,Brebes,ID,76.53,scattered clouds,-6.8706,109.0369,HOTEL GRAND DIAN BREBES
506,Salinas,US,88.7,few clouds,36.6777,-121.6555,Laurel Inn & Conference Center
507,Kutum,SD,80.71,overcast clouds,14.2,24.6667,Dibbo areaمنطقة دبو
509,The Valley,AI,83.1,broken clouds,18.217,-63.0578,CeBlue Villas & Beach Resort
513,Mikuni,JP,75.11,overcast clouds,36.2171,136.1519,Haiya
518,Ternate,ID,80.47,broken clouds,0.8,127.4,Grand Dafam Bela Ternate
521,Pinawa,CA,87.69,clear sky,50.1489,-95.8811,Pinawa Motel
522,Galle,LK,80.62,overcast clouds,6.0367,80.217,Amangalla
524,Kongolo,CD,75.97,scattered clouds,-5.3833,27.0,Mustafa Zengin Büyük Çerkes Düklüğü
526,Santa Barbara,US,82.24,clear sky,34.7333,-120.0343,Upper Ballard Campground
529,Kroya,ID,75.18,broken clouds,-7.6331,109.2461,RUSTANTO Fam
533,Jieshi,CN,82.94,overcast clouds,22.8134,115.8257,Yuehai Hotel
535,Torbat-E Jam,IR,81.93,clear sky,35.244,60.6225,White building
539,Tortoli,IT,76.82,clear sky,39.9256,9.6572,Hotel La Bitta
540,Champerico,GT,86.54,broken clouds,14.3,-91.9167,"Hotel y restaurante ""El Diamante"""
556,Flin Flon,CA,89.44,broken clouds,54.7682,-101.865,Victoria Inn Flin Flon
560,Basmat,IN,81.55,light rain,19.3167,77.1667,Vishwajit Kanchale
565,Abu Dhabi,AE,89.71,clear sky,24.4667,54.3667,Ramee Garden Hotel Apartments
567,Alexandria,EG,78.76,clear sky,31.2156,29.9553,Royal Crown Hotel
569,Ishikawa,JP,80.92,scattered clouds,26.4233,127.8214,Sheraton Okinawa Sunmarina Resort
573,Saint-Georges,GD,82.08,few clouds,12.0564,-61.7485,Radisson Grenada Beach Resort
577,Labuhan,ID,76.08,scattered clouds,-6.8844,112.2051,PT PPI Lamongan Tambak C
579,Rangapara,IN,75.96,overcast clouds,26.8167,92.65,Bidhan
580,San Rafael Del Sur,NI,85.17,overcast clouds,11.8485,-86.4384,Hospedaje El Chino
581,Cayenne,GF,83.08,clear sky,4.9333,-52.3333,Hôtel Le Dronmi
586,Lazaro Cardenas,MX,80.89,overcast clouds,17.9583,-102.2,quinta antigua
590,Bodden Town,KY,87.01,scattered clouds,19.2833,-81.25,Will T Place
594,Eureka,US,82.67,broken clouds,40.8021,-124.1637,Eureka Inn Trademark By Wyndham
599,Auki,SB,81.21,moderate rain,-8.7676,160.7034,Auki Motel
601,Crawfordsville,US,82.49,scattered clouds,40.0411,-86.8745,"Holiday Inn Express & Suites Crawfordsville, an IHG Hotel"
602,Sao Miguel,BR,79.57,broken clouds,-5.4667,-35.3667,CEJ - Centro Escoteiro da Juventude
606,Minab,IR,89.1,few clouds,27.1467,57.0801,Bam campground
611,Axim,GH,76.73,light rain,4.8699,-2.2405,AXIM BEACH RESORT AND SPA
615,Oistins,BB,80.69,scattered clouds,13.0667,-59.5333,Butterfly Beach Hotel
617,Flagstaff,US,86.14,clear sky,35.1981,-111.6513,Drury Inn & Suites Flagstaff
620,Oriximina,BR,78.93,broken clouds,-1.7656,-55.8661,Pousada Tia Amélia
621,Westport,US,75.85,moderate rain,41.1415,-73.3579,The Westport Inn
623,San Carlos,VE,75.34,overcast clouds,9.6612,-68.5827,Hotel Paternopoli
628,Ouesso,CG,76.77,broken clouds,1.6136,16.0517,ABENIE Hotel
637,Price,US,87.06,clear sky,39.5994,-110.8107,National 9 - Price River Inn
639,Kudahuvadhoo,MV,82.15,broken clouds,2.6708,72.8944,Niyama Private Islands Maldives
642,Dauphin,CA,87.94,clear sky,51.1494,-100.0502,Canway Inn & Suites
645,Naliya,IN,83.52,broken clouds,23.2667,68.8333,jadeja jayendrasinh
647,Havelock,US,87.06,scattered clouds,34.8791,-76.9013,Sherwood Motel
648,Mersing,MY,75.11,overcast clouds,2.4312,103.8405,Timotel Hotel
655,Barao De Melgaco,BR,77.52,clear sky,-16.1944,-55.9675,Tuiuiu Pantanal Hotel
661,Puerto Escondido,MX,83.23,overcast clouds,15.85,-97.0667,Aldea del Bazar Hotel and Spa
664,Chanute,US,82.45,overcast clouds,37.6792,-95.4572,Guest House Motel Chanute
665,Birjand,IR,77.47,clear sky,32.8663,59.2211,Birjand Tourist Hotel
666,Moerai,PF,75.67,few clouds,-22.4333,-151.3333,Le Manotel
667,Hazorasp,UZ,89.44,clear sky,41.3194,61.0742,Kemping wifi hotel
668,Sao Jose Da Coroa Grande,BR,75.99,broken clouds,-8.8978,-35.1478,Crôa Mares Hotel
670,Cockburn Town,TC,81.5,few clouds,21.4612,-71.1419,Osprey Beach Hotel
